[
 {
  "resName": "삼학집",
  "resIntro": "73년 전통 여수 식당",
  "lat": 34.7435,
  "lng": 127.7492,
  "like": 33
 },
 {
  "resName": "나진국밥",
  "resIntro": "성시경도 반한 여수 노포 맛집",
  "lat": 34.7072,
  "lng": 127.6134,
  "like": 27
 },
 {
  "resName": "펍앤다이닝뷔페",
  "resIntro": "벨메르 호텔 레스토랑. 로컬 식재료를 활용한 시그니처 메뉴",
  "lat": 34.7429,
  "lng": 127.6729,
  "like": 16
 },
 {
  "resName": "시나브로",
  "resIntro": "진짜 여수 시골밥상을 맛보고 싶다면",
  "lat": 34.5379,
  "lng": 127.7087,
  "like": 45
 },
 {
  "resName": "구백식당",
  "resIntro": "여수 외식요리의 시초가 되는 백년가게",
  "lat": 34.7389,
  "lng": 127.732,
  "like": 51
 },
 {
  "resName": "7공주장어탕",
  "resIntro": "신선한 여수 바다장어를 다양하게 즐겨보세요",
  "lat": 34.7393,
  "lng": 127.7307,
  "like": 21
 },
 {
  "resName": "함남면옥",
  "resIntro": "소고기로 육수를 낸 67년 전통의 냉면 전문점",
  "lat": 34.7403,
  "lng": 127.7367,
  "like": 38
 },
 {
  "resName": "용궁횟집",
  "resIntro": "그날 여수바다에서 잡아 신선한 해산물 풀코스",
  "lat": 34.7531,
  "lng": 127.7027,
  "like": 41
 },
 {
  "resName": "거문도실내마차",
  "resIntro": "갈치회, 고등어회처럼 독특한 회를 맛보고 싶다면",
  "lat": 34.7554,
  "lng": 127.7044,
  "like": 29
 },
 {
  "resName": "해담별담",
  "resIntro": "감성 인테리어. 전통주 소믈리에의 칵테일 한잔",
  "lat": 34.7431,
  "lng": 127.6728,
  "like": 16
 }
]