[
 {
  "actName": "여수 요트체험",
  "actIntro": "시원한 바람에 몸을 맡기며 즐기는 자유로운 세일링",
  "lat": 34.7448,
  "lng": 127.6728,
  "like": 18
 },
 {
  "actName": "라마다 짚트랙",
  "actIntro": "푸른 바다 위를 날아보자! 스릴 넘치는 해양 짚라인",
  "lat": 34.7174,
  "lng": 127.7485,
  "like": 41
 },
 {
  "actName": "여수 해양레일바이크",
  "actIntro": "해안가를 따라 달리는 코스의 낭만적 풍경",
  "lat": 34.7726,
  "lng": 127.7467,
  "like": 22
 },
 {
  "actName": "여수 루지테마파크",
  "actIntro": "루지를 타고 박진감 넘치는 트랙을 달려보자!",
  "lat": 34.748,
  "lng": 127.6412,
  "like": 37
 },
 {
  "actName": "예술랜드 고카트",
  "actIntro": "쉼과 재미가 공존하는 곳. 여수의 바다를 질주하라!",
  "lat": 34.6941,
  "lng": 127.7776,
  "like": 20
 },
 {
  "actName": "라테라스 워터파크",
  "actIntro": "이국적인 분위기의 라테라스 워터파크에서의 특별한 하루",
  "lat": 34.7089,
  "lng": 127.7566,
  "like": 49
 },
 {
  "actName": "여수 돌문어낚시",
  "actIntro": "여수의 명물 돌문어를 내손으로 잡는 짜릿한 손맛!",
  "lat": 34.7372,
  "lng": 127.7428,
  "like": 24
 },
 {
  "actName": "여수 갯바위 낚시터",
  "actIntro": "한적한 안도에서 즐기는 강태공의 안빈낙도 삶",
  "lat": 34.4895,
  "lng": 127.8139,
  "like": 15
 }
]